<markers>
<marker id="1" name="1231 Nadejda 4, Sofia" lat="42.73359288008637" lng="23.30205989005183"/>
<marker id="2" name="pl. Preobrazhenie, 1309 Sofia"  lat="42.70861467105155" lng="23.28789712336639"/>
<marker id="3" name="bul. Stefan Stambolov, 1000 Sofia Center, Sofia"  lat="42.70156895706728" lng="23.319202545888132"/>
<marker id="4" name="ul. Odrin 91-89, 1303 Sofia Center, Sofia"  lat="42.70178530619981" lng="23.304662715629682"/>
<marker id="5" name="bul. Slivnitsa 170, 1202 Sofia Center, Sofia"  lat="42.704603269137515" lng="23.32297909623142"/>
<marker id="6" name="ul. Valcho Georgiev 15А, 1360 Moderno predgradie, Sofia"  lat="42.72547719888158" lng="23.26795135455025"/>
<marker id="7" name="ul. Graf Ignatiev 40, 1000 Sofia Center, Sofia"  lat="42.68985556487789" lng=" 23.32648070552171"/>
<marker id="8" name="ul. 6-ti septemvri 18-24, 1000 Sofia Center, Sofia"  lat="42.69010594123358" lng="23.32572567828318"/>
<marker id="9" name="ul. Petar Parchevich 49, 1000 Sofia Center, Sofia"  lat="42.690862159894436" lng="23.32253249380424"/>
<marker id="10" name="Sofia"  lat=" 42.71356534377683" lng=" 23.292578327979875"/>
<marker id="11" name="1303 Sofia Center, Sofia"  lat="42.701665056098044" lng="23.315820705276426"/>
<marker id="12" name="ul. Graf Ignatiev 38А, 1000 Sofia Center, Sofia"  lat=" 42.690390882786495" lng="23.325897339662482"/>
<marker id="13" name="ul. Kalach 27 а, 1225 kv. Orlandovtsi, Sofia"  lat="42.71479086305654" lng="23.34424059491799"/>
<marker id="14" name="bul. Stefan Stambolov, 1000 Sofia Center, Sofia"  lat="42.701671159970225" lng=" 23.31911671519762"/>
<marker id="15" name="Sofia, bul. Graf Ignatiev 19"  lat="42.69105207753793" lng="23.325811508973263"/>
<marker id="16" name="bul. Stefan Stambolov, 1000 Sofia Center, Sofia"  lat="42.701604018778475" lng="23.31928837657516"/>
<marker id="17" name="ul. Todor Burmov 2-А, ет 1, 1606 Pette Kyosheta, Sofia"  lat="42.69551241424097" lng="23.31345188968166"/>
<marker id="18" name="ul. Tri ushi 5-1, 1000 Sofia Center, Sofia"  lat=" 42.695645086736725" lng="23.317880641799015"/>
<marker id="19" name="1220 Voenna Rampa, Sofia"  lat="42.728720607491226" lng="23.32374573572274"/>
<marker id="20" name="bul. Todor Alexandrov 69-63, 1303 Sofia Center, Sofia"  lat="42.69955862949281" lng="23.311477783825342"/>
</markers>