<markers>
<marker id="1" name="ul. Smolyansk 24, 1612 g.k. Lagera, Sofia" lat="42.688160629385955" lng="23.295514771901747"/>
<marker id="2" name="ul. Obelsko Shose 20, 1360 SPZ Moderno predgradie, Sofia"  lat="42.730546392669176" lng="23.268161341283125"/>
<marker id="3" name="Block 217, 1233 g.k. Fondovi zhilishta, Sofia"  lat="42.71204943742138" lng="23.300966353335387"/>
<marker id="4" name="Bl 215А, 1233 g.k. Fondovi zhilishta, Sofia"  lat="42.712616977479215" lng="23.301877027132704"/>
<marker id="5" name="ul. Mayor Georgi Vekilski, 1309 g.k. Banishora, Sofia"  lat="42.710154640828854" lng="23.30090082342598"/>
<marker id="6" name="ul. Matey Preobrazhenski 387, 1331 zh.k. Lyulin 3, Sofia"  lat="42.72028987298854" lng="23.253242051594427"/>
<marker id="7" name="ul. Aleksandar Mihov, 1220 g.k. Lev Tolstoy, Sofia"  lat="42.72829489183729" lng="23.308571748705315"/>
<marker id="8" name="1309 Sveta Troitsa, Sofia"  lat="42.705677613809364" lng="23.301511619910883"/>
<marker id="9" name="Bl 9, 1309 g.k. Zona B-18, Sofia"  lat="42.703887851578926" lng="23.303274203706728"/>
<marker id="10" name="Bl 18А, 1379 g.k. Serdika, Sofia"  lat="42.69624978485351" lng="23.299851072424364"/>
<marker id="11" name="ul. Bulgarska morava 1, 1303 Zona B-5, Sofia"  lat="42.69423160733433" lng="23.304221163195017"/>
<marker id="12" name="ul. Vladayska 105-99, 1606 Sofia Center, Sofia"  lat="42.6915395959047" lng="23.306773288233973"/>
<marker id="13" name="ul. Yakov Kraykov 2-4, 1606 Kriva Reka, Sofia"  lat="42.68880219495636" lng="23.30517144295789"/>
<marker id="14" name="ul. Konstantin Irechek 6А, 1606 Kriva Reka, Sofia"  lat="42.68909004415366" lng="23.30623544223733"/>
<marker id="15" name="ul. Konstantin Irechek 22, 1606 Kriva Reka, Sofia"  lat="42.68823290078898" lng="23.30635006963701"/>
<marker id="16" name="ul. Viktor Grigorovich, 1606 Kriva Reka, Sofia"  lat="42.687920264603946" lng="23.305967371490386"/>
<marker id="17" name="ul. Yakov Kraykov 19, 1606 Kriva Reka, Sofia"  lat="42.68749391563022" lng="23.304587167783676"/>
<marker id="18" name="bul. General Eduard I. Totleben, 1606 Kriva Reka, Sofia"  lat=" 42.68763609269366" lng="23.301541711964596"/>
<marker id="19" name="bul. Tsar Boris III, Sofia"  lat="42.687135829378676" lng="23.30001108896635"/>
<marker id="20" name="bul. Tsar Boris III, 1612 Hipodruma, Sofia"  lat="42.685772470875634" lng="23.298176711964743"/>
<marker id="21" name="ul. Felix Kanitz 15, 1612 Sofia"  lat="42.68450344812027" lng="23.30018859847321"/>
<marker id="22" name="ul. Sofiyski Geroy, 1612 Hipodruma, Sofia"  lat="  42.68352764640567" lng="23.298822838947363"/>
<marker id="23" name="bul. Tsar Boris III 69-61, 1612 Hipodruma, Sofia"  lat="42.680915910609876" lng="23.289311367783444"/>
<marker id="24" name="ul. Nishava 3, 1612 Hipodruma, Sofia"  lat="42.68067831325728" lng="23.289780027309256"/>
<marker id="25" name="bul. Tsar Boris III 80, 1612 g.k. Lagera, Sofia"  lat="42.68109860069849" lng="23.288098948405572"/>
<marker id="26" name="1612 Hipodruma, Sofia"  lat="42.67970806838562" lng="23.29084976401108"/>
<marker id="27" name="ul. Kavarna 1, 1612 g.k. Lagera, Sofia"  lat="42.679644363541556" lng="23.285416542653916"/>
<marker id="28" name="ulitsa Savet na Evropa 13-9, 1612 g.k. Lagera, Sofia"  lat="42.680336337565365" lng="23.28509561381779"/>
<marker id="29" name="bul. Tsar Boris III 124, 1612 g.k. Slavia, Sofia"  lat="42.678484732013416" lng="23.2835487876942"/>
<marker id="30" name="Sofia"  lat="42.676898958126486" lng="23.28214547334354"/>
<marker id="31" name="bul. Tsar Boris III, 1618 Bakston, Sofia"  lat="42.67374988224677" lng="23.276268996619475"/>
<marker id="32" name="ulitsa General Aleksandar V. Suvorov 2А, 1618 Bakston, Sofia"  lat="42.67316556106549" lng="23.27650191196434"/>
<marker id="33" name="ul. Kostur 1, 1618 Ovcha kupel, Sofia"  lat="42.672575103176634" lng="23.27043239847295"/>
<marker id="34" name="ul. Sveta Marina 54-46, 1680 Borovo, Sofia"  lat="42.66861588435266" lng="23.284582946360434"/>
<marker id="35" name="1680 Borovo, Sofia"  lat="42.667957934016734" lng="23.283827369636523"/>
<marker id="36" name="ul. General Stefan Toshev 31, 1618 g.k. Krasno selo, Sofia"  lat="42.668879597700254" lng="23.279545840800292"/>
<marker id="37" name="1680 Borovo, Sofia"  lat="42.667942156323164" lng="23.28379518312794"/>
<marker id="38" name="ul. Ladoga, 1680 Borovo, Sofia"  lat=" 42.66759620156254" lng="23.282856727308967"/>
<marker id="39" name="Borovo,bl. 220"  lat="42.66830822186257" lng="23.284282538947"/>
<marker id="40" name="1680 Borovo, Sofia"  lat="42.67062669540846" lng="23.286610783128033"/>
<marker id="41" name="ul. Pirinski prohod 30, 1680 g.k. Krasno selo, Sofia"  lat="42.673871700707906" lng="23.287100967783424"/>
<marker id="42" name="ul. Dechko Yordanov, 1680 g.k. Krasno selo, Sofia"  lat="42.67364047742933" lng="23.28935484265391"/>
<marker id="43" name="1680 Krasno selo, Sofia"  lat="42.67420438814291" lng="23.290289867783336"/>
<marker id="44" name="1680 Krasno selo, Sofia"  lat="42.67230107516404" lng="23.290646344507163"/>
<marker id="45" name="ul. Solun 53, 1680 Borovo, Sofia"  lat="42.66963302472694" lng="23.288537407480547"/>
<marker id="46" name="ul. Pirinski prohod 37, 1680 Borovo, Sofia"  lat="42.671005325507885" lng="23.29092666963655"/>
<marker id="47" name="Bulevard Bulgaria 57-51, 1404 Motopista, Sofia"  lat="42.671429537007945 " lng="23.294079207713192"/>
<marker id="48" name="ulitsa Metlichina Poljana, 1404 Motopista, Sofia"  lat="42.669417918623225" lng="23.294369869636604"/>
<marker id="49" name="ulitsa Metlichina Poljana 15, 1404 Motopista, Sofia"  lat="42.668381210464986" lng="23.296172025455455"/>
<marker id="50" name="ulitsa Metlichina Poljana 48, 1404 Motopista, Sofia"  lat="42.6639521390125" lng="23.300867025455442"/>
<marker id="51" name="Block 101, 1404 Motopista, Sofia"  lat="42.66599671821669" lng="23.300379483105978"/>
<marker id="52" name="ulitsa Bademova gora 9, 1404 g.k. Strelbishte, Sofia"  lat="42.669188275742876" lng="23.301240056145144"/>
<marker id="53" name="ul. Nishava 159, 1408 g.k. Strelbishte, Sofia"  lat="42.67057194140761" lng="23.30237912545564"/>
<marker id="54" name="Strelbishte, Sofia"  lat="42.66970442875494 " lng="23.303430247451438 "/>
<marker id="55" name="ulitsa Bademova gora 9, 1404 g.k. Strelbishte, Sofia"  lat="42.66924349654573" lng="23.301261513817533"/>
<marker id="56" name="ul. Kostina 5-1, 1404 g.k. Strelbishte, Sofia"  lat="42.668935441269475 " lng="23.302202498472674"/>
<marker id="57" name="ul. Nishava bl. 159, 1408 g.k. Strelbishte, Sofia"  lat="42.670706046001264" lng="23.302518600326174"/>
<marker id="58" name="Strelbishte, Sofia"  lat="42.67208719244257" lng="23.299783683128002"/>
<marker id="59" name="ul. Kosovo Pole 6-11, 1408 g.k. Strelbishte, Sofia"  lat="42.67233021012179 " lng="23.302879927308968"/>
<marker id="60" name="ul. Midia, 1408 g.k. Strelbishte, Sofia"  lat="42.67525170159303" lng="23.301992284981484"/>
<marker id="61" name="g.k. Strelbishte 11Б, 1408 g.k. Strelbishte, Sofia"  lat="42.675897926890734" lng="23.30229079847293"/>
<marker id="62" name="ul. Enos 2-16, 1408 g.k. Strelbishte, Sofia"  lat="42.67782955691902" lng="23.30016834080056"/>
<marker id="63" name="ul. Balsha 18, 1408 Ivan Vazov, Sofia"  lat="42.67810150870333" lng="23.304148915603275"/>
<marker id="64" name="ul. Yaroslav Veshin 63-37, 1408 Ivan Vazov, Sofia"  lat="42.67600805078128" lng="23.307236413817762"/>
<marker id="65" name="Blok 26, 1408 Ivan Vazov, Sofia"  lat="42.67674225848458" lng="23.307884483128227"/>
<marker id="66" name="ul. Yanko Zabunov 169-99, 1408 Ivan Vazov, Sofia"  lat="42.67745754450887" lng="23.309583198472996"/>
<marker id="67" name="ul. Yanko Zabunov 29-5, 1408 Ivan Vazov, Sofia"  lat="42.677216569712584" lng="23.310694640800534"/>
<marker id="68" name="1408 Ivan Vazov, Sofia"  lat="42.6763617105507" lng="23.310943556145272"/>
<marker id="69" name="bul. Arsenalski 4Б, 1421 Yuzhen, Sofia"  lat="42.67460889149495" lng="23.312256029162516"/>
<marker id="70" name="bul. Vitosha, 1408 Ivan Vazov, Sofia"  lat="42.67898746589107" lng="23.310902540800786"/>
<marker id="71" name="Sv. Vrach, 1408 Ivan Vazov, Sofia"  lat="42.680173074543696" lng="23.311187713817723"/>
<marker id="72" name="Sofia, 20 Dr. Stefan Sarafov Str., Mag.4"  lat="42.67985129220701" lng="23.309748948214054"/>
<marker id="73" name="ul. Balsha 19-5, 1408 Ivan Vazov, Sofia"  lat="42.68054105891717" lng="23.309462767783494"/>
<marker id="74" name="Sv. Vrach, 1408 Ivan Vazov, Sofia"  lat="42.68019673642528" lng="23.311080425455774"/>
<marker id="75" name="ul. Louis Eyer  132, 1404 Manastirski Livadi, Sofia"  lat="42.65503653656246" lng="23.296702725455244"/>
<marker id="76" name="1404 Manastirski Livadi, Sofia"  lat="42.652997766547735" lng="23.28914086778285"/>
<marker id="77" name="Blok 33, 1343 zh.k. Lyulin 1, Sofia"  lat="42.72552123148717" lng="23.25801748312948"/>
<marker id="78" name="1404 Manastirski Livadi, Sofia"  lat="42.65731939526692" lng="23.298082227308697"/>
<marker id="79" name="ul. Emiliyan Stanev 69j, 1407 Krastova vada, Sofia"  lat="42.64996037814901" lng="23.31121067148945"/>
<marker id="80" name="Vitosha Tulip, 1 Dimitar Manchev Str., 1407 Krastova vada, Sofia"  lat="42.64874389205649" lng="23.314077183127406"/>
<marker id="81" name="ul. Samokovsko Shose 69, 1138 Gorublyane, Gorublyane"  lat="42.62693427213165" lng="23.407305442402745"/>
<marker id="82" name="ul. Samokovsko Shose 33, 1138 Gorublyane, Gorublyane"  lat="42.63253023943694" lng="23.409577142402878"/>
<marker id="83" name="ul. Pavel Krasov 34, 1138 Gorublyane, Sofia"  lat="42.63566792404374" lng="23.409940638709152"/>
<marker id="84" name="ul. Pavel Krasov 13, 1138 Gorublyane, Gorublyane"  lat="42.63704999135195" lng="23.411278171238312"/>
<marker id="85" name="Blok 43, 1138 zh.k. Eksperimentalen, Sofia"  lat="42.635442431546984" lng="23.40177350623127"/>
<marker id="86" name="Blok 39, 1138 zh.k. Eksperimentalen, Sofia"  lat="42.63460599103678" lng="23.399118741813577"/>
<marker id="87" name="kv. Gorublyane 1 v dvora na Komko, Sofia"  lat="42.634206859190044" lng="23.40395396077985"/>
<marker id="88" name="1138 zh.k. Experimentalen, Sofia"  lat="42.63436017175777" lng="23.403644338718408"/>
<marker id="89" name="zh.k. Gorublyane 8, 1138 zh.k. Eksperimentalen, Gorublyane"  lat="42.63456071665971" lng="23.40371847532073"/>
<marker id="90" name="1750 Mladost 1, Sofia"  lat="42.65870479060687" lng="23.373240782886228"/>
<marker id="91" name="zh.k. Gorublyane 3, 1138 zh.k. Eksperimentalen, Gorublyane"  lat="42.634497741085234" lng="23.404399525214863"/>
<marker id="92" name=""  lat="42.63343116955929" lng="23.400092040556096"/>
<marker id="93" name="ul. 205-ta, 1756 Krastova vada, Sofia"  lat="42.65607953830861" lng="23.312447111963902"/>
<marker id="94" name="ul. Kozya 16, 1408 zhil. grupa Yuzhen park, Sofia"  lat="42.66694828086009" lng="23.31200346963649"/>
<marker id="95" name="ul. St. L. Kostov, 1407 Promishlena zona Hladilnika, Sofia"  lat="42.65970946713139" lng="23.322955856145008"/>
<marker id="96" name="ul. Sofiyski Geroy 1, 1612 Hipodruma, Sofia"  lat="42.685717264759376" lng="23.29820889847333"/>
<marker id="97" name="ul. Nayden Gerov 6, 1612 Hipodruma, Sofia"  lat="42.68449556137414" lng="23.300210056145595"/>
<marker id="98" name="bul. Tsar Boris III, 1612 Hipodruma, Sofia"  lat="42.68575669770457" lng="23.29810161011138"/>
<marker id="99" name="1606 Kriva Reka, Sofia"  lat="42.68625560983072" lng="23.30338000032666"/>
<marker id="100" name="Parking lot, 1606 Sofia Center, Sofia"  lat="42.68515043252552" lng="23.305034213817965"/>
<marker id="101" name="ul. Yakov Kraykov 6-12, 1606 Kriva Reka, Sofia"  lat="42.6875018019957" lng="23.304683727309435"/>
<marker id="102" name="ul. Konstantin Irechek 22, 1606 Kriva Reka, Sofia"  lat="42.68823290078898" lng="23.30630715429223"/>
<marker id="103" name="ul. Daskal Manol, 1606 Kriva Reka, Sofia"  lat="42.687399588556005" lng="23.30650889847332"/>
<marker id="104" name="ul. Konstantin Irechek 6a, 1606 Kriva Reka, Sofia"  lat="42.68915508543553" lng="23.306267627309524"/>
<marker id="105" name="ul. Dukatska Planina 21-13, 1606 Sofia Center, Sofia"  lat="42.68908960263445" lng="23.308807457998952"/>
<marker id="106" name="ul. Lyulin planina 35-33, 1606 Sofia Center, Sofia"  lat="42.688629145082515" lng="23.309268754292308"/>
<marker id="107" name="bul. Pencho Slaveykov 15, 1606 Pette Kyosheta, Sofia"  lat="42.68821528311162" lng="23.30925676963706"/>
<marker id="108" name="ul. Sveti Ivan Rilski 39-29, 1606 Sofia Center, Sofia"  lat="42.6878982783309" lng="23.30977495429224"/>
<marker id="109" name="bul. Pencho Slaveykov 17, 1606 Kriva Reka, Sofia"  lat="42.6874443340296" lng="23.309549313818042"/>
<marker id="110" name="ul. Lyulin planina 27-23, 1606 Sofia Center, Sofia"  lat="42.68986168938915" lng="23.310661696619917"/>
<marker id="111" name="ul. Dukatska Planina 21-13, 1606 Sofia Center, Sofia"  lat="42.68909748879737" lng="23.30864652545603"/>
<marker id="112" name="bul. General Mihail D. Skobelev 55, 1606 Pette Kyosheta, Sofia"  lat="42.68998444168692" lng="23.312951661821902"/>
<marker id="113" name="bul. General Mihail D. Skobelev 32, 1606 Sofia Center, Sofia"  lat="42.69054662376022" lng="23.312992386101627"/>
<marker id="114" name="bul. General Mihail D. Skobelev 42, 1606 Sofia Center, Sofia"  lat="42.69108271098503" lng="23.312305277502528"/>
<marker id="115" name="bul. General Mihail D. Skobelev 28, 1606 Pette Kyosheta, Sofia"  lat="42.69020534109128" lng="23.313412713084467"/>
<marker id="116" name="bul. Hristo Botev 12, 1000 Sofia Center, Sofia"  lat="42.690913096339244" lng="23.31460058610164"/>
<marker id="117" name="bul. Makedonia 22, 1606 Sofia Center, Sofia"  lat="42.69387644920711" lng="23.31289709847337 "/>
<marker id="118" name="ul. Vladayska 19, Sofia Center, Sofia"  lat="42.695594627553255" lng="23.31489203894761"/>
<marker id="119" name="bul. Hristo Botev 41-37, 1606 Sofia Center, Sofia"  lat="42.69379646276525" lng="23.315262171490453"/>
<marker id="120" name="Sofia Center, Sofia"  lat="42.69570474036598" lng="23.31283745451044"/>
<marker id="121" name="ul. Vladayska 19, Sofia Center, Sofia"  lat="42.695610398226165" lng="23.31495641196478"/>
<marker id="122" name="bulevard Knyaginya Maria Luiza 16, 1000 Sofia Center, Sofia"  lat="42.70041891285056" lng="23.32293462545644"/>
<marker id="123" name="2A Yakubitsa Str., apt. 24, 0000 Sofia"  lat="42.697729209855254" lng="23.321877343588163"/>
<marker id="124" name="ul. Ekzarh Yosif 29, 1000 Sofia Center, Sofia"  lat="42.70037160448338" lng="23.322988269637413"/>
<marker id="125" name="Sofia, zhk. Druzhba 2, ul. Iskar"  lat="42.699159852549485" lng="23.32539565614591"/>
<marker id="126" name="bul. Kniaz Aleksandar Dondukov 13-11, 1000 Sofia Center, Sofia"  lat="42.69794321003419" lng="23.32765216963733"/>
<marker id="127" name="bul. Vasil Levski, 1000 Sofia Center, Sofia"  lat="42.69893334220801" lng="23.3345307893291"/>
<marker id="128" name="bulevard Knyaginya Maria Luiza 53-43, 1202 Sofia Center, Sofia"  lat="42.701748031712654" lng="23.323078583128755"/>
<marker id="129" name="28, ul. Bacho Kiro Str, Floor 7, 1000 Sofia"  lat="42.70099877320106" lng="23.326856394766747"/>
<marker id="130" name="ul. Veslets 11, 1000 Sofia Center, Sofia"  lat="42.69914408277799" lng="23.325449300326888"/>
<marker id="131" name="ul. Ekzarh Yosif 59, 1000 Sofia Center, Sofia"  lat="42.70078588725307" lng="23.326942225456307"/>
<marker id="132" name="ul. Georgi Benkovski 34-36, 1202 Sofia Center, Sofia"  lat="42.70166648610831" lng="23.328124571490736"/>
<marker id="133" name="ulitsa Georgi S. Rakovski 79, 1000 Sofia Center, Sofia"  lat="42.70123462542828" lng="23.32953562730987"/>
<marker id="134" name="ul. Iskar 43-33, 1000 Sofia Center, Sofia"  lat="42.70031221986324" lng="23.3310562408012342"/>
<marker id="135" name="ul. Dunav 46-54, 1202 Sofia Center, Sofia"  lat="42.70280756116475" lng="23.3305392966202642"/>
<marker id="136" name="ul. Ekzarh Yosif 70, 1000 Sofia Center, Sofia"  lat="42.701264141392144" lng="23.332137440801137"/>
<marker id="137" name="ul. Ekzarh Yosif 123-115, 1527 Sofia Center, Sofia"  lat="42.70231754510304" lng="23.333848481275517"/>
<marker id="138" name="bul. Vasil Levski, Sofia Center, Sofia"  lat="42.70307492396783" lng="23.33323277183155"/>
<marker id="139" name="bul. Slivnitsa 45, 1202 Sofia Center, Sofia"  lat="42.70461103664735" lng="23.329174500579125"/>
<marker id="140" name="ulitsa Georgi S. Rakovski 79, 1000 Sofia Center, Sofia"  lat="42.701258279287586" lng="23.329514169637484"/>
<marker id="141" name="ul. Ekzarh Yosif 123-115, 1527 Sofia Center, Sofia"  lat="42.702333314068525" lng="23.33396649847367"/>
<marker id="142" name="Sofia, Danail Nikolaev St 20"  lat="42.70210678504585" lng="23.337801869637367"/>
<marker id="143" name="ul. Panayot Volov 4А, 1527 Sofia Center, Sofia"  lat="42.69920177695426" lng="23.336500640801123"/>
<marker id="144" name="bul. Kniaz Aleksandar Dondukov 117, 1527 Sofia Center, Sofia"  lat="42.69958842142567" lng="23.340934113818392"/>
<marker id="145" name="bul. Kniaz Aleksandar Dondukov 89, 1527 Sofia Center, Sofia"  lat="42.69934903706515" lng="23.337915125456384"/>
<marker id="146" name="bul. Kniaz Aleksandar Dondukov 109-93, 1527 Sofia Center, Sofia"  lat="42.69909604705054" lng="23.338954884982122"/>
<marker id="147" name="1510 Hadji Dimitar, Sofia"  lat="42.70545395103257" lng="23.340471580158546"/>
<marker id="148" name="ul. Trakia 20-40, 1527 Sofia Center, Sofia"  lat="42.69895613237452" lng="23.3428715542925"/>
<marker id="149" name="bul. General Danail Nikolaev, 1527 Sofia Center, Sofia"  lat="42.69936619165858" lng="23.346038252439204"/>
<marker id="150" name="Bulevard Evlogi i Hristo Georgiev"  lat="42.69805359015984" lng="23.347966184982113"/>
<marker id="151" name=""  lat="42.69673103887321" lng="23.34728605429238"/>
<marker id="152" name="ul. Bogdan 9-7, 1505 Oborishte, Sofia"  lat="42.69729416694124" lng="23.3530154254564"/>
<marker id="153" name="ul. Cherkovna 56, 1505 Oborishte, Sofia"  lat="42.69523569946318" lng="23.351410196620073"/>
<marker id="154" name="ul. Rusalka 23, 1505 Oborishte, Sofia"  lat="42.69509680404597" lng="23.350278238947645"/>
<marker id="155" name="ul. Professor Djovani Gorini 12, 1505 Oborishte, Sofia"  lat="42.69410490555751" lng="23.34878807149056"/>
<marker id="156" name="ul. Oborishte 103-97, 1505 Oborishte, Sofia"  lat="42.693544649586194" lng="23.35109415614561"/>
<marker id="157" name="ul. Oborishte 107-105, 1505 Oborishte, Sofia"  lat="42.69333173546399" lng="23.352052169637226"/>
<marker id="158" name="ul. Cherkovna 90, 1505 Oborishte, Sofia"  lat="42.691814809046875" lng="23.350605629162875"/>
<marker id="159" name="ul. Ograzhden 3-1, 1505 Oborishte, Sofia"  lat="42.690155558076476" lng="23.351898400326665"/>
<marker id="160" name="ul. Cherkovna 92, 1505 Oborishte, Sofia"  lat="42.689069357949926" lng="23.351283811964727"/>
<marker id="161" name="ul. Boycho voyvoda 2, 1124 g.k. Yavorov, Sofia"  lat="42.68650129015267" lng="23.350108940800805"/>
<marker id="162" name="ul. Mladen Pavlov, 1124 g.k. Yavorov, Sofia"  lat="42.687601433670515" lng="23.346441542654173"/>
<marker id="163" name="ul. Nikolay Rakitin 17-13, 1124 g.k. Yavorov, Sofia"  lat="42.68785446043597" lng="23.344121556121294"/>
<marker id="164" name="ul. Mizia 12, 1124 g.k. Yavorov, Sofia"  lat="42.6901430186899" lng="23.344301027309413"/>
<marker id="165" name="ul. Nikolay V. Gogol 18-20, 1124 g.k. Yavorov, Sofia"  lat="42.68994375617369" lng="23.342366838947576 "/>
<marker id="166" name="1113 Borisova Gradina, Sofia"  lat="42.67763282439929" lng="23.344560768731874"/>
<marker id="167" name="ulitsa Professor Hristo Vakarelski 1, 1000 Studentski Kompleks, Sofia"  lat="42.65764656386288" lng="23.343091278427387"/>
<marker id="168" name="Sofia, 5A Hristo Vakarelski Blvd., ent. A ap. 2"  lat="42.65651121391073" lng="23.3434114861014"/>
<marker id="169" name="ul. Prof. Hristo Danov, 1700 Studentski Kompleks, Sofia"  lat="42.65856062555682" lng="23.34818838161624"/>
<marker id="170" name="Block 32, 1700 Studentski Kompleks, Sofia"  lat="42.655537349582" lng="23.347815940799993"/>
<marker id="171" name="Block 474, 1715 g.k. Mladost 4, Sofia"  lat="42.62537710344272" lng="23.38157175967464"/>
<marker id="172" name="zh.k.Mladost 4, Lilia bl.485, ks, 1715 Sofia"  lat="42.62628536564536" lng="23.380477935066452"/>
<marker id="173" name="15 Dr. Atanas Moskov St., Fantastiiko store, 1715 Sofia"  lat="42.62717480144028" lng="23.379191999053962"/>
<marker id="174" name="1715 Mladost 4, Sofia"  lat="42.62924915439843" lng="23.379565628908672"/>
<marker id="175" name="Block 464, 1715 g.k. Mladost 4, Sofia"  lat="42.62962669253183" lng="23.382046991850313"/>
<marker id="176" name="1715 Mladost 4, Sofia"  lat="42.629394640899214" lng="23.380647457318673"/>
<marker id="177" name="ul. Samara, 1715 Mladost 4, Sofia"  lat="42.630650220942414" lng="23.37901095921723"/>
<marker id="178" name="Block 444, 1715 g.k. Mladost 4, Sofia"  lat="42.630029591973376" lng="23.377109190954872"/>
<marker id="179" name="ul. Nov den, 1715 g.k. Mladost 4, Sofia"  lat="42.63201386070811" lng="23.378881548146904"/>
<marker id="180" name="to block 436, 1715 Sofia"  lat="42.63212549022381" lng="23.37670898347489"/>
<marker id="181" name="ul. Aleksandar Paskalev, 1715 g.k. Mladost 4, Sofia"  lat="42.6351819389934" lng="23.375755312994524 "/>
<marker id="182" name="ul. Aleksandar Paskalev, 1715 g.k. Mladost 4, Sofia"  lat="42.63523324349897" lng="23.376951578127407"/>
<marker id="183" name="ulitsa Doctor Atanas Moskov, 1715 g.k. Mladost 4, Sofia"  lat="42.63433540853424" lng="23.375037822044558"/>
<marker id="184" name="Block 474, 1715 g.k. Mladost 4, Sofia"  lat="42.62553794852899" lng="23.381573100779047"/>
<marker id="185" name="Block 482, 1715 g.k. Mladost 4, Sofia"  lat="42.62560013123951" lng="23.381066835066502"/>
<marker id="186" name="1712 Mladost 3, Sofia"  lat="42.63989754413372" lng="23.386016527062043"/>
<marker id="187" name="zh.k. Mladost 3 353, 1712 g.k. Mladost 3, Sofia"  lat="42.63861829358621" lng="23.385125025214982"/>
<marker id="188" name="Block 359, 1712 g.k. Mladost 3, Sofia"  lat="42.64118786281424" lng="23.38573245589742"/>
<marker id="189" name="ul. akad. Rumen Tsanev 325a, 1712 g.k. Mladost 3, Sofia"  lat="42.63746884026989" lng="23.375817311155046"/>
<marker id="190" name="1712 Mladost 3, Sofia"  lat="42.63809239525107" lng="23.37583445407233"/>
<marker id="191" name="ul. Sveto preobrazhenie, 1712 g.k. Mladost 3, Sofia"  lat="42.63996838790298" lng="23.37528815405041"/>
<marker id="192" name="zh.k. Mladost 3 327, 1712 g.k. Mladost 3, Sofia"  lat="42.639942890998874" lng="23.37621309822673"/>
<marker id="193" name="ul. d-r Nikolay P. Nikolaev 330, 1712 g.k. Mladost 3, Sofia"  lat="42.63931182137379" lng="23.37836168288568"/>
<marker id="194" name="ul. d-r Nikolay P. Nikolaev 330, 1712 g.k. Mladost 3, Sofia"  lat="42.63919451493009" lng="23.37790835321641"/>
<marker id="195" name="zh.k. Mladost 3 329, 1712 g.k. Mladost 3, Sofia"  lat="42.63986554826849" lng="23.379225061195903"/>
<marker id="196" name=""  lat="" lng=""/>
<marker id="197" name=""  lat="" lng=""/>
<marker id="198" name=""  lat="" lng=""/>
<marker id="199" name=""  lat="" lng=""/>
<marker id="200" name=""  lat="" lng=""/>
<marker id="201" name=""  lat="" lng=""/>
<marker id="202" name=""  lat="" lng=""/>
<marker id="203" name=""  lat="" lng=""/>
<marker id="204" name=""  lat="" lng=""/>
<marker id="205" name=""  lat="" lng=""/>
<marker id="206" name=""  lat="" lng=""/>
<marker id="207" name=""  lat="" lng=""/>
<marker id="208" name=""  lat="" lng=""/>
<marker id="209" name=""  lat="" lng=""/>
<marker id="210" name=""  lat="" lng=""/>
<marker id="211" name=""  lat="" lng=""/>
<marker id="212" name=""  lat="" lng=""/>
<marker id="213" name=""  lat="" lng=""/>
<marker id="214" name=""  lat="" lng=""/>
<marker id="215" name=""  lat="" lng=""/>
<marker id="216" name=""  lat="" lng=""/>
<marker id="217" name=""  lat="" lng=""/>
<marker id="218" name=""  lat="" lng=""/>
<marker id="219" name=""  lat="" lng=""/>
<marker id="220" name=""  lat="" lng=""/>
<marker id="221" name=""  lat="" lng=""/>
<marker id="222" name=""  lat="" lng=""/>
<marker id="223" name=""  lat="" lng=""/>
<marker id="224" name=""  lat="" lng=""/>
<marker id="225" name=""  lat="" lng=""/>
<marker id="226" name=""  lat="" lng=""/>
<marker id="227" name=""  lat="" lng=""/>
<marker id="228" name=""  lat="" lng=""/>
<marker id="229" name=""  lat="" lng=""/>
<marker id="230" name=""  lat="" lng=""/>
</markers>